[
  {
    "name": "YESQUEST - Information Technology Company",
    "category": "Software company",
    "address": "429, Silverstone Arcade, Causeway Rd, nr. DMart, River Park Society, Singanpor, Surat, Gujarat 395004",
    "phone": "093160 31538",
    "website": "https://yesquesttech.com/"
  },
  {
    "name": "Instance IT Solutions",
    "category": "Software company",
    "address": "1st Floor, Shivan Avenue, 13-17, Causeway Link Rd, opposite Hyundai Service Center, Dabholi Village, Surat, Gujarat 395004",
    "phone": "0261 312 1140",
    "website": "https://instanceit.com/"
  },
  {
    "name": "Kriit Technologies Pvt. Ltd.",
    "category": "Software company",
    "address": "305, Avalon Business Hub, opp. Patidar Samaj Hall Road, nr. Ankur School, Priya Park Society, Katargam, Surat, Gujarat 395004",
    "phone": "091060 54132",
    "website": "https://www.kriit.com/"
  },
  {
    "name": "TechStaunch Software Solutions Pvt. Ltd.",
    "category": "Software company",
    "address": "302 - 304 Soham Arcade B/H Madhav Atria, Gauravpath Road, Green City Road, 395009, Adajan, Pal Gam, Surat, Gujarat 395009",
    "city": "Surat",
    "phone": "087801 73037",
    "website": "https://techstaunch.com/"
  },
  {
    "name": "Susamp Infotech",
    "category": "Software company",
    "address": "412, Parle Square, opp. Akshar wadi, opp. Shree kunj Appartment, Pramukh Darshan Society, Katargam, Surat, Gujarat 395004",
    "city": "Surat",
    "phone": "0261 359 0579",
    "website": "http://www.susampinfotech.com/"
  },
  {
    "name": "Codeverse Weenggs Solutions LLP",
    "category": "Software company",
    "address": "221, Avalon - The Business Hub, opp. Patidar Samaj Hall Road, Aamba Talavadi, Priya Park Society, Katargam, Surat, Gujarat 395004",
    "city": "Surat",
    "phone": "094286 16132",
    "website": "https://weenggs.com/"
  },
  {
    "name": "DUIUX Infotech",
    "category": "Software company",
    "address": "205, Zircon Plus, opp. Patidar Patel Bhavan, Katargam, Surat, Gujarat 395004",
    "city": "Surat",
    "phone": "088666 56788",
    "website": "https://www.duiux.com/"
  },
  {
    "name": "Hashcrypt Technologies Pvt. Ltd.",
    "category": "Software company",
    "address": "3rd Floor, United Square, Nana Mava Rd, Karan Park, Rajkot, Gujarat 360002",
    "city": "Rajkot",
    "phone": "090332 72899",
    "website": "https://hashcrypt.com/"
  },
  {
    "name": "Flitzen Technologies Pvt Ltd",
    "category": "Software company",
    "address": "3rd Floor, Dwarkadhish Complex, Above Gramin Bank, Raiya Circle, Gujarat 360005",
    "city": "Raiya Circle",
    "phone": "",
    "website": "https://flitzen.io/"
  },
  {
    "name": "Softhealer Technologies Pvt. Ltd.",
    "category": "Software company",
    "address": "530, West Gate 2, nr. Ayodhya Chowk, Krishna Society, Madhapar, Rajkot, Gujarat 360005",
    "city": "Rajkot",
    "phone": "090232 46069",
    "website": "https://softhealer.com/"
  },
  {
    "name": "Immersive - Software Development Company | Hire Developers - PHP, JAVA, .Net, Python, Node JS, Blockchain",
    "category": "Software company",
    "address": "604, Atulya IT Park, Bhawarkua Main Rd, next to Crystal IT Park, Khandwa Naka, Indore, Madhya Pradesh 452014",
    "city": "",
    "phone": "080 6218 0491",
    "website": "https://www.immersiveinfotech.com/"
  },
  {
    "name": "Hi-Tech Company Software Solutions (Chennai) Private Limited",
    "category": "Software company",
    "address": "4, 4th Street, Bharathy Nagar, T. Nagar, Chennai, Tamil Nadu 600017",
    "city": "",
    "phone": "044 2834 4782",
    "website": "http://www.htssindia.in/"
  },
  {
    "name": "Tameta Tech",
    "category": "Software company",
    "address": "406, City Center, Yogi Chowk Rd, Varachha, Surat, Gujarat 395010",
    "city": "Surat",
    "phone": "070694 95636",
    "website": ""
  },
  {
    "name": "",
    "category": "",
    "address": "",
    "city": "",
    "phone": "",
    "website": ""
  },
  {
    "name": "NexGen Innovators - Software Company",
    "category": "Website designer",
    "address": "114B, 3rd floor, Dwarka Mor, New Delhi, Delhi 110059",
    "city": "Delhi",
    "phone": "",
    "website": "https://www.nexgi.com/"
  },
  {
    "name": "Mypcot Infotech Pvt Ltd",
    "category": "Software company",
    "address": "102, VTM-2 Building condominium, Mehra Ind Compound, Sakinaka, A.K.Road, Andheri East, Mumbai, Maharashtra 400072",
    "city": "Mumbai",
    "phone": "082085 57739",
    "website": "https://www.mypcot.com/",
    "latitude": 19.1005569,
    "longitude": 72.5965514
  },
  {
    "name": "Catalist ERP Software Solutions | Best ERP Software Kerala",
    "category": "Software company",
    "address": "3rd Floor, Aluva Market, Aalambana Building, near Metro Pillar No-30, Periyar Nagar, Aluva, Kochi, Kerala 683101",
    "city": "",
    "phone": "077362 93665",
    "website": "http://www.catalisterp.com/",
    "latitude": 10.1053291,
    "longitude": 75.7739025
  },
  {
    "name": "Netgen IT Solutions Private limited",
    "category": "Software company",
    "address": "3rd Floor, Block, 24, STPI Rd, SDA Complex, Kasumpti, Shimla, Himachal Pradesh 171009",
    "city": "",
    "phone": "097364 33738",
    "website": "https://netgen.in/",
    "latitude": 31.5951315,
    "longitude": 75.8776054
  },
  {
    "name": "Velocious Solutions Pvt. Ltd. | Best Software Company in Hyderabad | Top IT Services Provider",
    "category": "Software company",
    "address": "Asian Sun City, 1507, B Block, Forest Dept Colony, Kondapur, Hyderabad, Telangana 500084",
    "city": "",
    "phone": "098495 93473",
    "website": "https://velocioussolutions.com/",
    "latitude": 17.458566,
    "longitude": 78.2910049
  },
  {
    "name": "BSIT Software Services Pvt. Ltd.- Leading Software Development Company.",
    "category": "Software company",
    "address": "2nd Floor, Vaishnavi's Cynosure, 2-48/5/6, Gachibowli Rd, opp. RTTC, Krishna Nagar Colony, Telecom Nagar Extension, Gachibowli, Hyderabad, Telangana 500032",
    "city": "",
    "phone": "099852 22841",
    "website": "http://www.bsitsoftware.com/",
    "latitude": 17.4786151,
    "longitude": 78.2965366
  },
  {
    "name": "Google Pune",
    "category": "Corporate office",
    "address": "S. No, AP81, 83, N Main Rd, near Hard Rock Cafe, Koregaon Park Annexe, Mundhwa, Pune, Maharashtra 411036",
    "city": "Pune",
    "phone": "",
    "website": "http://google.com/",
    "latitude": 18.5355845,
    "longitude": 73.8413726
  },
  {
    "name": "Microsoft India (R&D) Private Limited",
    "category": "Corporate office",
    "address": "Building - 1, COMMERZONE IT PARK, Samrat Ashok Path, Commerzone IT Park, Yerawada, Pune, Maharashtra 411006",
    "city": "Pune",
    "phone": "",
    "website": "http://www.microsoft.com/",
    "latitude": 18.5646918,
    "longitude": 73.7863028
  },
  {
    "name": "Tata Consultancy Services Limited",
    "category": "Software company",
    "address": "Premises No 2-56/1/36 Phase - II Gachibowli Road TCS Synergy park, Seri Lingampally, Gachibowli, Telangana 500019",
    "city": "",
    "phone": "040 6789 3000",
    "website": "http://www.tcs.com/",
    "latitude": 17.4471204,
    "longitude": 78.0634397
  },
  {
    "name": "Thinktech Software | Website design company in Kolkata",
    "category": "Software company",
    "address": "Room No 44, 4th Floor, 125, Netaji Subhas Rd, Fairley Place, Barabazar Market, Kolkata, West Bengal 700001",
    "city": "",
    "phone": "098310 52038",
    "website": "http://www.thinktechsoftware.com/",
    "latitude": 22.5815359,
    "longitude": 88.205651
  },
  {
    "name": "Amazon Hyderabad Campus (HYD13)",
    "category": "Corporate office",
    "address": "Paayilis Rd, Financial District, Gachibowli, Nanakramguda, Telangana 500032",
    "city": "",
    "phone": "",
    "website": "",
    "latitude": 17.4206226,
    "longitude": 78.2731121
  },
  {
    "name": "Meta India",
    "category": "Corporate office",
    "address": "DLF ATRIA, Gulmohar Marg, DLF Phase 2, Sector 25, Gurugram, Haryana 122002",
    "city": "",
    "phone": "",
    "website": "http://meta.com/",
    "latitude": 28.493206,
    "longitude": 77.0827904
  }
]